[
    {
        "name": "Dr. Alex Johnson",
        "specialty": "Cardiologist",
        "location": "123 Heart Lane, Springfield",
        "phone": "(555) 123-4567",
        "fees": 500
    },
    {
        "name": "Dr. Emily Chen",
        "specialty": "Pediatrician",
        "location": "456 Kid's Street, Rivertown",
        "phone": "(555) 234-5678",
        "fees": 500
    },
    {
        "name": "Dr. Michael Smith",
        "specialty": "Orthopedic Surgeon",
        "location": "789 Bone Road, Metropolis",
        "phone": "(555) 345-6789",
        "fees": 500
    },
    {
        "name": "Dr. Sarah Lee",
        "specialty": "Dermatologist",
        "location": "101 Skin Avenue, Lakeside",
        "phone": "(555) 456-7890",
        "fees": 500
    },
    {
        "name": "Dr. David Martinez",
        "specialty": "Neurologist",
        "location": "202 Brain Blvd, Hilltown",
        "phone": "(555) 567-8901",
        "fees": 500
    },
    {
        "name": "Dr. Laura Patel",
        "specialty": "Obstetrician",
        "location": "303 Baby Drive, Oakwood",
        "phone": "(555) 678-9012",
        "fees": 500
    },
    {
        "name": "Dr. Kevin Brown",
        "specialty": "General Practitioner",
        "location": "404 Wellness Way, Brookside",
        "phone": "(555) 789-0123",
        "fees": 500
    },
    {
        "name": "Dr. Megan Davis",
        "specialty": "Endocrinologist",
        "location": "505 Hormone Lane, Seaside",
        "phone": "(555) 890-1234",
        "fees": 500
    },
    {
        "name": "Dr. Brian Wilson",
        "specialty": "Oncologist",
        "location": "606 Cancer Crescent, Clearview",
        "phone": "(555) 901-2345",
        "fees": 500
    },
    {
        "name": "Dr. Olivia White",
        "specialty": "Gastroenterologist",
        "location": "707 Digest Drive, Springhill",
        "phone": "(555) 012-3456",
        "fees": 500
    },
    {
        "name": "Dr. James Brown",
        "specialty": "Pulmonologist",
        "location": "808 Lung Lane, Riverside",
        "phone": "(555) 123-5678",
        "fees": 500
    },
    {
        "name": "Dr. Isabella Davis",
        "specialty": "Rheumatologist",
        "location": "909 Joint Avenue, Meadowbrook",
        "phone": "(555) 234-6789",
        "fees": 500
    },
    {
        "name": "Dr. William Harris",
        "specialty": "Nephrologist",
        "location": "1010 Kidney Drive, Sunnyvale",
        "phone": "(555) 345-7890",
        "fees": 500
    },
    {
        "name": "Dr. Sophia Martinez",
        "specialty": "Allergist",
        "location": "1111 Allergy Way, Westfield",
        "phone": "(555) 456-8901",
        "fees": 500
    },
    {
        "name": "Dr. Benjamin Wilson",
        "specialty": "Urologist",
        "location": "1212 Bladder Boulevard, Forestville",
        "phone": "(555) 567-9012",
        "fees": 500
    },
    {
        "name": "Dr. Mia Anderson",
        "specialty": "Hematologist",
        "location": "1313 Blood Lane, Greenfield",
        "phone": "(555) 678-0123",
        "fees": 500
    },
    {
        "name": "Dr. Elijah Moore",
        "specialty": "Infectious Disease Specialist",
        "location": "1414 Virus Road, Newtown",
        "phone": "(555) 789-1234",
        "fees": 500
    },
    {
        "name": "Dr. Charlotte Taylor",
        "specialty": "Emergency Medicine",
        "location": "1515 Urgent Care Avenue, Kingsport",
        "phone": "(555) 890-2345",
        "fees": 500
    },
    {
        "name": "Dr. Daniel Scott",
        "specialty": "Psychiatrist",
        "location": "1616 Mind Lane, Crestwood",
        "phone": "(555) 901-3456",
        "fees": 500
    },
    {
        "name": "Dr. Amelia Thomas",
        "specialty": "Ophthalmologist",
        "location": "1717 Vision Drive, Brookville",
        "phone": "(555) 012-4567",
        "fees": 500
    },
    {
        "name": "Dr. Lucas Robinson",
        "specialty": "Otolaryngologist",
        "location": "1818 Ear Nose Throat Road, Hillcrest",
        "phone": "(555) 123-6789",
        "fees": 500
    },
    {
        "name": "Dr. Evelyn Martinez",
        "specialty": "Pathologist",
        "location": "1919 Lab Lane, Fairview",
        "phone": "(555) 234-7890",
        "fees": 500
    },
    {
        "name": "Dr. Henry Walker",
        "specialty": "Plastic Surgeon",
        "location": "2020 Aesthetic Avenue, Valleytown",
        "phone": "(555) 345-8901",
        "fees": 500
    },
    {
        "name": "Dr. Harper Young",
        "specialty": "Neurosurgeon",
        "location": "2121 Brainstem Street, Redwood",
        "phone": "(555) 456-9012",
        "fees": 500
    },
    {
        "name": "Dr. Nathan Lewis",
        "specialty": "Rheumatologist",
        "location": "2222 Joint Road, Riverdale",
        "phone": "(555) 567-0123",
        "fees": 500
    },
    {
        "name": "Dr. Grace Hall",
        "specialty": "Cardiovascular Surgeon",
        "location": "2323 Heartbeat Boulevard, Northfield",
        "phone": "(555) 678-1234",
        "fees": 500
    },
    {
        "name": "Dr. Aiden Allen",
        "specialty": "Geriatrician",
        "location": "2424 Senior Street, Lakeshore",
        "phone": "(555) 789-2345",
        "fees": 500
    },
    {
        "name": "Dr. Lily Adams",
        "specialty": "Pulmonologist",
        "location": "2525 Breathing Lane, Greenlake",
        "phone": "(555) 890-3456",
        "fees": 500
    },
    {
        "name": "Dr. Gabriel Carter",
        "specialty": "Endocrinologist",
        "location": "2626 Thyroid Drive, Hillview",
        "phone": "(555) 901-4567",
        "fees": 500
    },
    {
        "name": "Dr. Ella Baker",
        "specialty": "Gastroenterologist",
        "location": "2727 Stomach Street, Oakridge",
        "phone": "(555) 012-5678",
        "fees": 500
    },
    {
        "name": "Dr. Michael Nelson",
        "specialty": "Oncologist",
        "location": "2828 Cancer Crescent, Rivervale",
        "phone": "(555) 123-7890",
        "fees": 500
    },
    {
        "name": "Dr. Ava Carter",
        "specialty": "Nephrologist",
        "location": "2929 Kidney Court, Brookhaven",
        "phone": "(555) 234-8901",
        "fees": 500
    },
    {
        "name": "Dr. Logan Rodriguez",
        "specialty": "Hematologist",
        "location": "3030 Blood Boulevard, Springdale",
        "phone": "(555) 345-9012",
        "fees": 500
    },
    {
        "name": "Dr. Mia White",
        "specialty": "Infectious Disease Specialist",
        "location": "3131 Virus View, Northlake",
        "phone": "(555) 456-0123",
        "fees": 500
    },
    {
        "name": "Dr. Isaac Harris",
        "specialty": "Psychiatrist",
        "location": "3232 Mental Health Drive, Seaview",
        "phone": "(555) 567-1234",
        "fees": 500
    },
    {
        "name": "Dr. Harper Lewis",
        "specialty": "Emergency Medicine",
        "location": "3333 Urgent Street, Lakewood",
        "phone": "(555) 678-2345",
        "fees": 500
    },
    {
        "name": "Dr. Zoe Evans",
        "specialty": "Ophthalmologist",
        "location": "3434 Sight Street, Meadowlark",
        "phone": "(555) 789-3456",
        "fees": 500
    },
    {
        "name": "Dr. Elijah King",
        "specialty": "Otolaryngologist",
        "location": "3535 Ear Avenue, Crestwood",
        "phone": "(555) 890-4567",
        "fees": 500
    },
    {
        "name": "Dr. Abigail Thompson",
        "specialty": "Pathologist",
        "location": "3636 Lab Lane, Eastwood",
        "phone": "(555) 901-5678",
        "fees": 500
    },
    {
        "name": "Dr. Owen Wright",
        "specialty": "Plastic Surgeon",
        "location": "3737 Beauty Boulevard, Riverview",
        "phone": "(555) 012-6789",
        "fees": 500
    },
    {
        "name": "Dr. Isabella Anderson",
        "specialty": "Neurosurgeon",
        "location": "3838 Neuro Drive, Parkland",
        "phone": "(555) 123-7891",
        "fees": 500
    },
    {
        "name": "Dr. Elijah Green",
        "specialty": "Rheumatologist",
        "location": "3939 Joint Junction, Hilltown",
        "phone": "(555) 234-8902",
        "fees": 500
    },
    {
        "name": "Dr. Charlotte Adams",
        "specialty": "Cardiovascular Surgeon",
        "location": "4040 Heartbeat Highway, Fairview",
        "phone": "(555) 345-9013",
        "fees": 500
    },
    {
        "name": "Dr. James Thompson",
        "specialty": "Geriatrician",
        "location": "4141 Elder Road, Woodbridge",
        "phone": "(555) 456-0124",
        "fees": 500
    },
    {
        "name": "Dr. Amelia Johnson",
        "specialty": "Pulmonologist",
        "location": "4242 Lung Lane, Lakewood",
        "phone": "(555) 567-1235",
        "fees": 500
    },
    {
        "name": "Dr. Benjamin Walker",
        "specialty": "Endocrinologist",
        "location": "4343 Hormone Hill, Sunnyvale",
        "phone": "(555) 678-2346",
        "fees": 500
    },
    {
        "name": "Dr. Sophia Martinez",
        "specialty": "Gastroenterologist",
        "location": "4444 Digest Drive, Riverwood",
        "phone": "(555) 789-3457",
        "fees": 500
    },
    {
        "name": "Dr. Lucas Brown",
        "specialty": "Oncologist",
        "location": "4545 Cancer Court, Meadowview",
        "phone": "(555) 890-4568",
        "fees": 500
    },
    {
        "name": "Dr. Mia White",
        "specialty": "Nephrologist",
        "location": "4646 Kidney Way, Westbrook",
        "phone": "(555) 901-5679",
        "fees": 500
    },
    {
        "name": "Dr. Noah Carter",
        "specialty": "Hematologist",
        "location": "4747 Blood Boulevard, Riverdale",
        "phone": "(555) 012-6780",
        "fees": 500
    },
    {
        "name": "Dr. Olivia King",
        "specialty": "Infectious Disease Specialist",
        "location": "4848 Virus Valley, Crestwood",
        "phone": "(555) 123-7892",
        "fees": 500
    },
    {
        "name": "Dr. Ethan Nelson",
        "specialty": "Psychiatrist",
        "location": "4949 Mind Avenue, Brookfield",
        "phone": "(555) 234-8903",
        "fees": 500
    },
    {
        "name": "Dr. Harper Smith",
        "specialty": "Emergency Medicine",
        "location": "5050 Urgent Care Crescent, Hilltown",
        "phone": "(555) 345-9014",
        "fees": 500
    },
    {
        "name": "Dr. Ava Lewis",
        "specialty": "Ophthalmologist",
        "location": "5151 Vision Lane, Lakewood",
        "phone": "(555) 456-0125",
        "fees": 500
    },
    {
        "name": "Dr. Mason Walker",
        "specialty": "Otolaryngologist",
        "location": "5252 Ear Nose Road, Oakbrook",
        "phone": "(555) 567-1236",
        "fees": 500
    },
    {
        "name": "Dr. Charlotte Davis",
        "specialty": "Pathologist",
        "location": "5353 Lab Lane, Riverfield",
        "phone": "(555) 678-2347",
        "fees": 500
    },
    {
        "name": "Dr. Jack Evans",
        "specialty": "Plastic Surgeon",
        "location": "5454 Aesthetic Avenue, Springtown",
        "phone": "(555) 789-3458",
        "fees": 500
    },
    {
        "name": "Dr. Lily Scott",
        "specialty": "Neurosurgeon",
        "location": "5555 Neuro Drive, Crestview",
        "phone": "(555) 890-4569",
        "fees": 500
    },
    {
        "name": "Dr. Daniel Thomas",
        "specialty": "Rheumatologist",
        "location": "5656 Joint Junction, Fairview",
        "phone": "(555) 901-5670",
        "fees": 500
    },
    {
        "name": "Dr. Grace White",
        "specialty": "Cardiovascular Surgeon",
        "location": "5757 Heartbeat Lane, Rivertide",
        "phone": "(555) 012-6781",
        "fees": 500
    },
    {
        "name": "Dr. Leo Turner",
        "specialty": "Geriatrician",
        "location": "5858 Senior Avenue, Lakeview",
        "phone": "(555) 123-7893",
        "fees": 500
    },
    {
        "name": "Dr. Mia Evans",
        "specialty": "Pulmonologist",
        "location": "5959 Breathing Road, Greenhill",
        "phone": "(555) 234-8904",
        "fees": 500
    },
    {
        "name": "Dr. Aiden Thompson",
        "specialty": "Endocrinologist",
        "location": "6060 Thyroid Drive, Valleytown",
        "phone": "(555) 345-9015",
        "fees": 500
    },
    {
        "name": "Dr. Zoe Martinez",
        "specialty": "Gastroenterologist",
        "location": "6161 Stomach Street, Woodside",
        "phone": "(555) 456-0126",
        "fees": 500
    },
    {
        "name": "Dr. Noah Davis",
        "specialty": "Oncologist",
        "location": "6262 Cancer Crescent, Brookside",
        "phone": "(555) 567-1237",
        "fees": 500
    },
    {
        "name": "Dr. Olivia Johnson",
        "specialty": "Nephrologist",
        "location": "6363 Kidney Court, Meadowview",
        "phone": "(555) 678-2348",
        "fees": 500
    },
    {
        "name": "Dr. Ethan White",
        "specialty": "Hematologist",
        "location": "6464 Blood Boulevard, Crestwood",
        "phone": "(555) 789-3459",
        "fees": 500
    },
    {
        "name": "Dr. Amelia Green",
        "specialty": "Infectious Disease Specialist",
        "location": "6565 Virus View, Lakewood",
        "phone": "(555) 890-4560",
        "fees": 500
    },
    {
        "name": "Dr. Gabriel Hall",
        "specialty": "Psychiatrist",
        "location": "6666 Mental Health Drive, Rivervale",
        "phone": "(555) 901-5671",
        "fees": 500
    },
    {
        "name": "Dr. Harper Davis",
        "specialty": "Emergency Medicine",
        "location": "6767 Urgent Avenue, Seaview",
        "phone": "(555) 012-6782",
        "fees": 500
    },
    {
        "name": "Dr. Lucas White",
        "specialty": "Ophthalmologist",
        "location": "6868 Sight Street, Fairwood",
        "phone": "(555) 123-7894",
        "fees": 500
    },
    {
        "name": "Dr. Sophia King",
        "specialty": "Otolaryngologist",
        "location": "6969 Ear Road, Springfield",
        "phone": "(555) 234-8905",
        "fees": 500
    },
    {
        "name": "Dr. James Rodriguez",
        "specialty": "Pathologist",
        "location": "7070 Lab Lane, Westfield",
        "phone": "(555) 345-9016",
        "fees": 500
    },
    {
        "name": "Dr. Ava Martinez",
        "specialty": "Plastic Surgeon",
        "location": "7171 Aesthetic Avenue, Riverwood",
        "phone": "(555) 456-0127",
        "fees": 500
    },
    {
        "name": "Dr. Daniel Harris",
        "specialty": "Neurosurgeon",
        "location": "7272 Neuro Drive, Oakwood",
        "phone": "(555) 567-1238",
        "fees": 500
    },
    {
        "name": "Dr. Emily Lewis",
        "specialty": "Rheumatologist",
        "location": "7373 Joint Junction, Meadowbrook",
        "phone": "(555) 678-2349",
        "fees": 500
    },
    {
        "name": "Dr. Owen Carter",
        "specialty": "Cardiovascular Surgeon",
        "location": "7474 Heartbeat Crescent, Crestwood",
        "phone": "(555) 789-3450",
        "fees": 500
    },
    {
        "name": "Dr. Isabella Brown",
        "specialty": "Geriatrician",
        "location": "7575 Elder Avenue, Brookside",
        "phone": "(555) 890-4561",
        "fees": 500
    },
    {
        "name": "Dr. Liam Scott",
        "specialty": "Pulmonologist",
        "location": "7676 Lung Lane, Westfield",
        "phone": "(555) 901-5672",
        "fees": 500
    },
    {
        "name": "Dr. Mia Adams",
        "specialty": "Endocrinologist",
        "location": "7777 Hormone Drive, Lakewood",
        "phone": "(555) 012-6783",
        "fees": 500
    },
    {
        "name": "Dr. Benjamin Taylor",
        "specialty": "Gastroenterologist",
        "location": "7878 Digest Avenue, Valleytown",
        "phone": "(555) 123-7895",
        "fees": 500
    },
    {
        "name": "Dr. Harper Wright",
        "specialty": "Oncologist",
        "location": "7979 Cancer Lane, Springtown",
        "phone": "(555) 234-8906",
        "fees": 500
    },
    {
        "name": "Dr. Grace Green",
        "specialty": "Nephrologist",
        "location": "8080 Kidney Way, Seaview",
        "phone": "(555) 345-9017",
        "fees": 500
    },
    {
        "name": "Dr. Ella Martin",
        "specialty": "Hematologist",
        "location": "8181 Blood Boulevard, Oakbrook",
        "phone": "(555) 456-0128",
        "fees": 500
    },
    {
        "name": "Dr. Noah White",
        "specialty": "Infectious Disease Specialist",
        "location": "8282 Virus Drive, Crestwood",
        "phone": "(555) 567-1239",
        "fees": 500
    },
    {
        "name": "Dr. Sophia Harris",
        "specialty": "Psychiatrist",
        "location": "8383 Mental Health Lane, Fairview",
        "phone": "(555) 678-2340",
        "fees": 500
    },
    {
        "name": "Dr. Lucas Davis",
        "specialty": "Emergency Medicine",
        "location": "8484 Urgent Way, Brookside",
        "phone": "(555) 789-3451",
        "fees": 500
    },
    {
        "name": "Dr. Ava Martinez",
        "specialty": "Ophthalmologist",
        "location": "8585 Sight Avenue, Seaview",
        "phone": "(555) 890-4562",
        "fees": 500
    },
    {
        "name": "Dr. Elijah Green",
        "specialty": "Otolaryngologist",
        "location": "8686 Ear Nose Road, Meadowbrook",
        "phone": "(555) 901-5673",
        "fees": 500
    },
    {
        "name": "Dr. Mia Walker",
        "specialty": "Pathologist",
        "location": "8787 Lab Drive, Riverwood",
        "phone": "(555) 012-6784",
        "fees": 500
    },
    {
        "name": "Dr. Daniel Carter",
        "specialty": "Plastic Surgeon",
        "location": "8888 Aesthetic Drive, Greenhill",
        "phone": "(555) 123-7896",
        "fees": 500
    },
    {
        "name": "Dr. Lily Thompson",
        "specialty": "Neurosurgeon",
        "location": "8989 Neuro Crescent, Crestview",
        "phone": "(555) 234-8907",
        "fees": 500
    },
    {
        "name": "Dr. Owen Evans",
        "specialty": "Rheumatologist",
        "location": "9090 Joint Lane, Sunnyvale",
        "phone": "(555) 345-9018",
        "fees": 500
    },
    {
        "name": "Dr. Amelia Adams",
        "specialty": "Cardiovascular Surgeon",
        "location": "9191 Heartbeat Road, Valleytown",
        "phone": "(555) 456-0129",
        "fees": 500
    },
    {
        "name": "Dr. Lucas White",
        "specialty": "Geriatrician",
        "location": "9292 Elder Boulevard, Brookwood",
        "phone": "(555) 567-1230",
        "fees": 500
    },
    {
        "name": "Dr. Chloe Green",
        "specialty": "Pulmonologist",
        "location": "9393 Lung Avenue, Lakeview",
        "phone": "(555) 678-2341",
        "fees": 500
    },
    {
        "name": "Dr. Gabriel Scott",
        "specialty": "Endocrinologist",
        "location": "9494 Thyroid Crescent, Crestwood",
        "phone": "(555) 789-3452",
        "fees": 500
    },
    {
        "name": "Dr. Emily Carter",
        "specialty": "Gastroenterologist",
        "location": "9595 Stomach Drive, Oakwood",
        "phone": "(555) 890-4563",
        "fees": 500
    },
    {
        "name": "Dr. Benjamin Lewis",
        "specialty": "Oncologist",
        "location": "9696 Cancer Way, Greenfield",
        "phone": "(555) 901-5674",
        "fees": 500
    },
    {
        "name": "Dr. Mia Martinez",
        "specialty": "Nephrologist",
        "location": "9797 Kidney Crescent, Riverview",
        "phone": "(555) 012-6785",
        "fees": 500
    },
    {
        "name": "Dr. Daniel Evans",
        "specialty": "Hematologist",
        "location": "9898 Blood Drive, Lakewood",
        "phone": "(555) 123-7897",
        "fees": 500
    },
    {
        "name": "Dr. Grace White",
        "specialty": "Infectious Disease Specialist",
        "location": "9999 Virus Lane, Meadowbrook",
        "phone": "(555) 234-8908",
        "fees": 500
    },
    {
        "name": "Dr. Jack Johnson",
        "specialty": "Psychiatrist",
        "location": "10000 Mental Health Avenue, Rivertide",
        "phone": "(555) 345-9019",
        "fees": 500
    },
    {
        "name": "Dr. Ava Davis",
        "specialty": "Emergency Medicine",
        "location": "10101 Urgent Crescent, Greenview",
        "phone": "(555) 456-0230",
        "fees": 500
    },
    {
        "name": "Dr. Mia Thompson",
        "specialty": "Ophthalmologist",
        "location": "10202 Sight Road, Riverfield",
        "phone": "(555) 567-2341",
        "fees": 500
    },
    {
        "name": "Dr. Noah Green",
        "specialty": "Otolaryngologist",
        "location": "10303 Ear Avenue, Hillcrest",
        "phone": "(555) 678-3452",
        "fees": 500
    },
    {
        "name": "Dr. Sophia Scott",
        "specialty": "Pathologist",
        "location": "10404 Lab Boulevard, Seaview",
        "phone": "(555) 789-4563",
        "fees": 500
    },
    {
        "name": "Dr. Elijah Davis",
        "specialty": "Plastic Surgeon",
        "location": "10505 Aesthetic Lane, Meadowview",
        "phone": "(555) 890-5674",
        "fees": 500
    },
    {
        "name": "Dr. Grace Harris",
        "specialty": "Neurosurgeon",
        "location": "10606 Neuro Avenue, Riverview",
        "phone": "(555) 901-6785",
        "fees": 500
    },
    {
        "name": "Dr. Harper Brown",
        "specialty": "Rheumatologist",
        "location": "10707 Joint Boulevard, Brookside",
        "phone": "(555) 012-7896",
        "fees": 500
    },
    {
        "name": "Dr. Liam Walker",
        "specialty": "Cardiovascular Surgeon",
        "location": "10808 Heartbeat Drive, Greenhill",
        "phone": "(555) 123-8901",
        "fees": 500
    },
    {
        "name": "Dr. Chloe Evans",
        "specialty": "Geriatrician",
        "location": "10909 Elder Lane, Lakeshore",
        "phone": "(555) 234-9012",
        "fees": 500
    },
    {
        "name": "Dr. Gabriel King",
        "specialty": "Pulmonologist",
        "location": "11010 Lung Crescent, Valleytown",
        "phone": "(555) 345-0123",
        "fees": 500
    },
    {
        "name": "Dr. Mia Martinez",
        "specialty": "Endocrinologist",
        "location": "11111 Thyroid Drive, Riverdale",
        "phone": "(555) 456-1234",
        "fees": 500
    },
    {
        "name": "Dr. Benjamin Carter",
        "specialty": "Gastroenterologist",
        "location": "11212 Stomach Avenue, Crestwood",
        "phone": "(555) 567-2345",
        "fees": 500
    },
    {
        "name": "Dr. Emma Brown",
        "specialty": "Oncologist",
        "location": "11313 Cancer Road, Hilltown",
        "phone": "(555) 678-3456",
        "fees": 500
    },
    {
        "name": "Dr. Noah Green",
        "specialty": "Nephrologist",
        "location": "11414 Kidney Lane, Lakewood",
        "phone": "(555) 789-4567",
        "fees": 500
    },
    {
        "name": "Dr. Ava White",
        "specialty": "Hematologist",
        "location": "11515 Blood Avenue, Sunnyvale",
        "phone": "(555) 890-5678",
        "fees": 500
    },
    {
        "name": "Dr. Elijah Scott",
        "specialty": "Infectious Disease Specialist",
        "location": "11616 Virus Crescent, Forestville",
        "phone": "(555) 901-6789",
        "fees": 500
    },
    {
        "name": "Dr. Grace Lewis",
        "specialty": "Psychiatrist",
        "location": "11717 Mental Health Drive, Westfield",
        "phone": "(555) 012-7897",
        "fees": 500
    },
    {
        "name": "Dr. Liam Adams",
        "specialty": "Emergency Medicine",
        "location": "11818 Urgent Way, Riverwood",
        "phone": "(555) 123-8902",
        "fees": 500
    },
    {
        "name": "Dr. Chloe Brown",
        "specialty": "Ophthalmologist",
        "location": "11919 Sight Lane, Crestwood",
        "phone": "(555) 234-9013",
        "fees": 500
    },
    {
        "name": "Dr. Jack White",
        "specialty": "Otolaryngologist",
        "location": "12020 Ear Drive, Meadowbrook",
        "phone": "(555) 345-0124",
        "fees": 500
    },
    {
        "name": "Dr. Emma Johnson",
        "specialty": "Pathologist",
        "location": "12121 Lab Avenue, Eastwood",
        "phone": "(555) 456-1235",
        "fees": 500
    },
    {
        "name": "Dr. Sophia Carter",
        "specialty": "Plastic Surgeon",
        "location": "12222 Aesthetic Way, Greenlake",
        "phone": "(555) 567-2346",
        "fees": 500
    },
    {
        "name": "Dr. Noah Davis",
        "specialty": "Neurosurgeon",
        "location": "12323 Neuro Crescent, Riverdale",
        "phone": "(555) 678-3457",
        "fees": 500
    },
    {
        "name": "Dr. Ava Thompson",
        "specialty": "Rheumatologist",
        "location": "12424 Joint Drive, Brookville",
        "phone": "(555) 789-4568",
        "fees": 500
    },
    {
        "name": "Dr. Liam Green",
        "specialty": "Cardiovascular Surgeon",
        "location": "12525 Heartbeat Lane, Valleyview",
        "phone": "(555) 890-5679",
        "fees": 500
    },
    {
        "name": "Dr. Grace Evans",
        "specialty": "Geriatrician",
        "location": "12626 Elder Crescent, Riverview",
        "phone": "(555) 901-6780",
        "fees": 500
    },
    {
        "name": "Dr. Chloe Walker",
        "specialty": "Pulmonologist",
        "location": "12727 Lung Avenue, Riverfield",
        "phone": "(555) 012-7898",
        "fees": 500
    },
    {
        "name": "Dr. Gabriel Lewis",
        "specialty": "Endocrinologist",
        "location": "12828 Thyroid Drive, Oakwood",
        "phone": "(555) 123-8903",
        "fees": 500
    },
    {
        "name": "Dr. Mia Brown",
        "specialty": "Gastroenterologist",
        "location": "12929 Stomach Crescent, Crestwood",
        "phone": "(555) 234-9014",
        "fees": 500
    },
    {
        "name": "Dr. Noah Carter",
        "specialty": "Oncologist",
        "location": "13030 Cancer Lane, Meadowbrook",
        "phone": "(555) 345-0125",
        "fees": 500
    },
    {
        "name": "Dr. Ava Green",
        "specialty": "Nephrologist",
        "location": "13131 Kidney Drive, Seaview",
        "phone": "(555) 456-1236",
        "fees": 500
    },
    {
        "name": "Dr. Jack Martinez",
        "specialty": "Hematologist",
        "location": "13232 Blood Crescent, Lakewood",
        "phone": "(555) 567-2347",
        "fees": 500
    },
    {
        "name": "Dr. Emma Davis",
        "specialty": "Infectious Disease Specialist",
        "location": "13333 Virus Road, Hilltown",
        "phone": "(555) 678-3458",
        "fees": 500
    },
    {
        "name": "Dr. Sophia Adams",
        "specialty": "Psychiatrist",
        "location": "13434 Mental Health Avenue, Springhill",
        "phone": "(555) 789-4569",
        "fees": 500
    },
    {
        "name": "Dr. Liam White",
        "specialty": "Emergency Medicine",
        "location": "13535 Urgent Boulevard, Riverdale",
        "phone": "(555) 890-5680",
        "fees": 500
    },
    {
        "name": "Dr. Chloe Scott",
        "specialty": "Ophthalmologist",
        "location": "13636 Sight Drive, Lakeside",
        "phone": "(555) 901-6781",
        "fees": 500
    }
]